[
  {
    "city": "Toronto",
    "admin": "Ontario",
    "country": "Canada",
    "population_proper": "3934421",
    "iso2": "CA",
    "capital": "admin",
    "latitude": "43.666667",
    "longitude": "-79.416667",
    "population": "5213000"
  },
  {
    "city": "Montreal",
    "admin": "Quebec",
    "country": "Canada",
    "population_proper": "2356556",
    "iso2": "CA",
    "capital": "",
    "latitude": "45.5",
    "longitude": "-73.583333",
    "population": "3678000"
  },
  {
    "city": "Vancouver",
    "admin": "British Columbia",
    "country": "Canada",
    "population_proper": "603502",
    "iso2": "CA",
    "capital": "",
    "latitude": "49.25",
    "longitude": "-123.133333",
    "population": "2313328"
  },
  {
    "city": "Ottawa",
    "admin": "Ontario",
    "country": "Canada",
    "population_proper": "812129",
    "iso2": "CA",
    "capital": "primary",
    "latitude": "45.416667",
    "longitude": "-75.7",
    "population": "1145000"
  },
  {
    "city": "Calgary",
    "admin": "Alberta",
    "country": "Canada",
    "population_proper": "915322",
    "iso2": "CA",
    "capital": "",
    "latitude": "51.083333",
    "longitude": "-114.083333",
    "population": "1110000"
  },
  {
    "city": "Edmonton",
    "admin": "Alberta",
    "country": "Canada",
    "population_proper": "712391",
    "iso2": "CA",
    "capital": "admin",
    "latitude": "53.55",
    "longitude": "-113.5",
    "population": "1058000"
  },
  {
    "city": "Hamilton",
    "admin": "Ontario",
    "country": "Canada",
    "population_proper": "519949",
    "iso2": "CA",
    "capital": "",
    "latitude": "43.256101",
    "longitude": "-79.857484",
    "population": "721053"
  },
  {
    "city": "Winnipeg",
    "admin": "Manitoba",
    "country": "Canada",
    "population_proper": "575313",
    "iso2": "CA",
    "capital": "admin",
    "latitude": "49.883333",
    "longitude": "-97.166667",
    "population": "632063"
  },
  {
    "city": "Quebec",
    "admin": "Quebec",
    "country": "Canada",
    "population_proper": "528595",
    "iso2": "CA",
    "capital": "admin",
    "latitude": "46.8",
    "longitude": "-71.25",
    "population": "624177"
  },
  {
    "city": "Oshawa",
    "admin": "Ontario",
    "country": "Canada",
    "population_proper": "247989",
    "iso2": "CA",
    "capital": "",
    "latitude": "43.9",
    "longitude": "-78.866667",
    "population": "450963"
  },
  {
    "city": "Kitchener",
    "admin": "Ontario",
    "country": "Canada",
    "population_proper": "409112",
    "iso2": "CA",
    "capital": "",
    "latitude": "43.446976",
    "longitude": "-80.472484",
    "population": "417001"
  },
  {
    "city": "Halifax",
    "admin": "Nova Scotia",
    "country": "Canada",
    "population_proper": "222874",
    "iso2": "CA",
    "capital": "admin",
    "latitude": "44.65",
    "longitude": "-63.6",
    "population": "359111"
  },
  {
    "city": "London",
    "admin": "Ontario",
    "country": "Canada",
    "population_proper": "335035",
    "iso2": "CA",
    "capital": "",
    "latitude": "42.983333",
    "longitude": "-81.25",
    "population": "346765"
  },
  {
    "city": "Windsor",
    "admin": "Ontario",
    "country": "Canada",
    "population_proper": "210891",
    "iso2": "CA",
    "capital": "",
    "latitude": "42.301649",
    "longitude": "-83.030744",
    "population": "319246"
  },
  {
    "city": "Victoria",
    "admin": "British Columbia",
    "country": "Canada",
    "population_proper": "251358",
    "iso2": "CA",
    "capital": "admin",
    "latitude": "48.450234",
    "longitude": "-123.343529",
    "population": "289625"
  },
  {
    "city": "Saskatoon",
    "admin": "Saskatchewan",
    "country": "Canada",
    "population_proper": "189193",
    "iso2": "CA",
    "capital": "",
    "latitude": "52.133333",
    "longitude": "-106.666667",
    "population": "198958"
  },
  {
    "city": "Barrie",
    "admin": "Ontario",
    "country": "Canada",
    "population_proper": "119732",
    "iso2": "CA",
    "capital": "",
    "latitude": "44.383333",
    "longitude": "-79.7",
    "population": "182041"
  },
  {
    "city": "Regina",
    "admin": "Saskatchewan",
    "country": "Canada",
    "population_proper": "176183",
    "iso2": "CA",
    "capital": "admin",
    "latitude": "50.45",
    "longitude": "-104.616667",
    "population": "176183"
  },
  {
    "city": "Sudbury",
    "admin": "Ontario",
    "country": "Canada",
    "population_proper": "80507",
    "iso2": "CA",
    "capital": "",
    "latitude": "46.5",
    "longitude": "-80.966667",
    "population": "157857"
  },
  {
    "city": "Abbotsford",
    "admin": "British Columbia",
    "country": "Canada",
    "population_proper": "151683",
    "iso2": "CA",
    "capital": "",
    "latitude": "49.05",
    "longitude": "-122.3",
    "population": "151683"
  },
  {
    "city": "Sarnia",
    "admin": "Ontario",
    "country": "Canada",
    "population_proper": "82998",
    "iso2": "CA",
    "capital": "",
    "latitude": "42.978417",
    "longitude": "-82.388177",
    "population": "144172"
  },
  {
    "city": "Sherbrooke",
    "admin": "Quebec",
    "country": "Canada",
    "population_proper": "129447",
    "iso2": "CA",
    "capital": "",
    "latitude": "45.4",
    "longitude": "-71.9",
    "population": "139652"
  },
  {
    "city": "Saint John\u2019s",
    "admin": "Newfoundland and Labrador",
    "country": "Canada",
    "population_proper": "99182",
    "iso2": "CA",
    "capital": "admin",
    "latitude": "47.55",
    "longitude": "-52.666667",
    "population": "131469"
  },
  {
    "city": "Kelowna",
    "admin": "British Columbia",
    "country": "Canada",
    "population_proper": "95306",
    "iso2": "CA",
    "capital": "",
    "latitude": "49.9",
    "longitude": "-119.483333",
    "population": "125109"
  },
  {
    "city": "Trois-Rivi\u00e8res",
    "admin": "Quebec",
    "country": "Canada",
    "population_proper": "116409",
    "iso2": "CA",
    "capital": "",
    "latitude": "46.35",
    "longitude": "-72.55",
    "population": "119693"
  },
  {
    "city": "Kingston",
    "admin": "Ontario",
    "country": "Canada",
    "population_proper": "102400",
    "iso2": "CA",
    "capital": "",
    "latitude": "44.3",
    "longitude": "-76.566667",
    "population": "114195"
  },
  {
    "city": "Thunder Bay",
    "admin": "Ontario",
    "country": "Canada",
    "population_proper": "97374",
    "iso2": "CA",
    "capital": "",
    "latitude": "48.4",
    "longitude": "-89.233333",
    "population": "99334"
  },
  {
    "city": "Moncton",
    "admin": "New Brunswick",
    "country": "Canada",
    "population_proper": "87467",
    "iso2": "CA",
    "capital": "",
    "latitude": "46.09652",
    "longitude": "-64.79757",
    "population": "90635"
  },
  {
    "city": "Saint John",
    "admin": "New Brunswick",
    "country": "Canada",
    "population_proper": "54449",
    "iso2": "CA",
    "capital": "",
    "latitude": "45.230798",
    "longitude": "-66.095316",
    "population": "87857"
  },
  {
    "city": "Nanaimo",
    "admin": "British Columbia",
    "country": "Canada",
    "population_proper": "80491",
    "iso2": "CA",
    "capital": "",
    "latitude": "49.15",
    "longitude": "-123.916667",
    "population": "84905"
  },
  {
    "city": "Peterborough",
    "admin": "Ontario",
    "country": "Canada",
    "population_proper": "75877",
    "iso2": "CA",
    "capital": "",
    "latitude": "44.3",
    "longitude": "-78.333333",
    "population": "83627"
  },
  {
    "city": "Saint-Jer\u00f4me",
    "admin": "Quebec",
    "country": "Canada",
    "population_proper": "54948",
    "iso2": "CA",
    "capital": "",
    "latitude": "45.766667",
    "longitude": "-74.0",
    "population": "78439"
  },
  {
    "city": "Red Deer",
    "admin": "Alberta",
    "country": "Canada",
    "population_proper": "73593",
    "iso2": "CA",
    "capital": "",
    "latitude": "52.266667",
    "longitude": "-113.8",
    "population": "74857"
  },
  {
    "city": "Lethbridge",
    "admin": "Alberta",
    "country": "Canada",
    "population_proper": "58571",
    "iso2": "CA",
    "capital": "",
    "latitude": "49.7",
    "longitude": "-112.833333",
    "population": "70617"
  },
  {
    "city": "Kamloops",
    "admin": "British Columbia",
    "country": "Canada",
    "population_proper": "68628",
    "iso2": "CA",
    "capital": "",
    "latitude": "50.666667",
    "longitude": "-120.333333",
    "population": "68714"
  },
  {
    "city": "Prince George",
    "admin": "British Columbia",
    "country": "Canada",
    "population_proper": "62707",
    "iso2": "CA",
    "capital": "",
    "latitude": "53.916667",
    "longitude": "-122.766667",
    "population": "65558"
  },
  {
    "city": "Medicine Hat",
    "admin": "Alberta",
    "country": "Canada",
    "population_proper": "53626",
    "iso2": "CA",
    "capital": "",
    "latitude": "50.033333",
    "longitude": "-110.683333",
    "population": "63138"
  },
  {
    "city": "Drummondville",
    "admin": "Quebec",
    "country": "Canada",
    "population_proper": "54123",
    "iso2": "CA",
    "capital": "",
    "latitude": "45.883333",
    "longitude": "-72.483333",
    "population": "59489"
  },
  {
    "city": "Chicoutimi",
    "admin": "Quebec",
    "country": "Canada",
    "population_proper": "53940",
    "iso2": "CA",
    "capital": "",
    "latitude": "48.45",
    "longitude": "-71.066667",
    "population": "53940"
  },
  {
    "city": "Fredericton",
    "admin": "New Brunswick",
    "country": "Canada",
    "population_proper": "36713",
    "iso2": "CA",
    "capital": "admin",
    "latitude": "45.910648",
    "longitude": "-66.658649",
    "population": "52337"
  },
  {
    "city": "Chilliwack",
    "admin": "British Columbia",
    "country": "Canada",
    "population_proper": "51942",
    "iso2": "CA",
    "capital": "",
    "latitude": "49.166667",
    "longitude": "-121.95",
    "population": "51942"
  },
  {
    "city": "North Bay",
    "admin": "Ontario",
    "country": "Canada",
    "population_proper": "41807",
    "iso2": "CA",
    "capital": "",
    "latitude": "46.3",
    "longitude": "-79.45",
    "population": "50170"
  },
  {
    "city": "Shawinigan-Sud",
    "admin": "Quebec",
    "country": "Canada",
    "population_proper": "34342",
    "iso2": "CA",
    "capital": "",
    "latitude": "46.528557",
    "longitude": "-72.751453",
    "population": "49161"
  },
  {
    "city": "Cornwall",
    "admin": "Ontario",
    "country": "Canada",
    "population_proper": "46382",
    "iso2": "CA",
    "capital": "",
    "latitude": "45.016667",
    "longitude": "-74.733333",
    "population": "48821"
  },
  {
    "city": "Joliette",
    "admin": "Quebec",
    "country": "Canada",
    "population_proper": "34772",
    "iso2": "CA",
    "capital": "",
    "latitude": "46.034",
    "longitude": "-73.441",
    "population": "45361"
  },
  {
    "city": "Belleville",
    "admin": "Ontario",
    "country": "Canada",
    "population_proper": "43990",
    "iso2": "CA",
    "capital": "",
    "latitude": "44.166667",
    "longitude": "-77.383333",
    "population": "43990"
  },
  {
    "city": "Charlottetown",
    "admin": "Prince Edward Island",
    "country": "Canada",
    "population_proper": "31293",
    "iso2": "CA",
    "capital": "admin",
    "latitude": "46.238225",
    "longitude": "-63.139481",
    "population": "42402"
  },
  {
    "city": "Victoriaville",
    "admin": "Quebec",
    "country": "Canada",
    "population_proper": "34426",
    "iso2": "CA",
    "capital": "",
    "latitude": "46.063106",
    "longitude": "-71.958802",
    "population": "41500"
  },
  {
    "city": "Grande Prairie",
    "admin": "Alberta",
    "country": "Canada",
    "population_proper": "40845",
    "iso2": "CA",
    "capital": "",
    "latitude": "55.166667",
    "longitude": "-118.8",
    "population": "41462"
  },
  {
    "city": "Penticton",
    "admin": "British Columbia",
    "country": "Canada",
    "population_proper": "30349",
    "iso2": "CA",
    "capital": "",
    "latitude": "49.5",
    "longitude": "-119.583333",
    "population": "37721"
  },
  {
    "city": "Sydney",
    "admin": "Nova Scotia",
    "country": "Canada",
    "population_proper": "37538",
    "iso2": "CA",
    "capital": "",
    "latitude": "46.15",
    "longitude": "-60.166667",
    "population": "37538"
  },
  {
    "city": "Orillia",
    "admin": "Ontario",
    "country": "Canada",
    "population_proper": "30178",
    "iso2": "CA",
    "capital": "",
    "latitude": "44.6",
    "longitude": "-79.416667",
    "population": "37483"
  },
  {
    "city": "Rimouski",
    "admin": "Quebec",
    "country": "Canada",
    "population_proper": "35584",
    "iso2": "CA",
    "capital": "",
    "latitude": "48.433333",
    "longitude": "-68.516667",
    "population": "35584"
  },
  {
    "city": "Timmins",
    "admin": "Ontario",
    "country": "Canada",
    "population_proper": "32901",
    "iso2": "CA",
    "capital": "",
    "latitude": "48.466667",
    "longitude": "-81.333333",
    "population": "34974"
  },
  {
    "city": "Prince Albert",
    "admin": "Saskatchewan",
    "country": "Canada",
    "population_proper": "24678",
    "iso2": "CA",
    "capital": "",
    "latitude": "53.2",
    "longitude": "-105.75",
    "population": "34609"
  },
  {
    "city": "Campbell River",
    "admin": "British Columbia",
    "country": "Canada",
    "population_proper": "26453",
    "iso2": "CA",
    "capital": "",
    "latitude": "50.016667",
    "longitude": "-125.25",
    "population": "33430"
  },
  {
    "city": "Courtenay",
    "admin": "British Columbia",
    "country": "Canada",
    "population_proper": "25099",
    "iso2": "CA",
    "capital": "",
    "latitude": "49.683333",
    "longitude": "-125.0",
    "population": "32793"
  },
  {
    "city": "Orangeville",
    "admin": "Ontario",
    "country": "Canada",
    "population_proper": "28984",
    "iso2": "CA",
    "capital": "",
    "latitude": "43.916366",
    "longitude": "-80.096671",
    "population": "32640"
  },
  {
    "city": "Moose Jaw",
    "admin": "Saskatchewan",
    "country": "Canada",
    "population_proper": "30707",
    "iso2": "CA",
    "capital": "",
    "latitude": "50.4",
    "longitude": "-105.55",
    "population": "32166"
  },
  {
    "city": "Brandon",
    "admin": "Manitoba",
    "country": "Canada",
    "population_proper": "26234",
    "iso2": "CA",
    "capital": "",
    "latitude": "49.833333",
    "longitude": "-99.95",
    "population": "28418"
  },
  {
    "city": "Brockville",
    "admin": "Ontario",
    "country": "Canada",
    "population_proper": "23886",
    "iso2": "CA",
    "capital": "",
    "latitude": "44.594958",
    "longitude": "-75.682133",
    "population": "26458"
  },
  {
    "city": "Saint-Georges",
    "admin": "Quebec",
    "country": "Canada",
    "population_proper": "26149",
    "iso2": "CA",
    "capital": "",
    "latitude": "46.116667",
    "longitude": "-70.683333",
    "population": "26149"
  },
  {
    "city": "Sept-\u00celes",
    "admin": "Quebec",
    "country": "Canada",
    "population_proper": "25686",
    "iso2": "CA",
    "capital": "",
    "latitude": "50.2",
    "longitude": "-66.383333",
    "population": "25686"
  },
  {
    "city": "Rouyn-Noranda",
    "admin": "Quebec",
    "country": "Canada",
    "population_proper": "24023",
    "iso2": "CA",
    "capital": "",
    "latitude": "48.25",
    "longitude": "-79.016667",
    "population": "24602"
  },
  {
    "city": "Whitehorse",
    "admin": "Yukon",
    "country": "Canada",
    "population_proper": "23272",
    "iso2": "CA",
    "capital": "admin",
    "latitude": "60.716667",
    "longitude": "-135.05",
    "population": "23276"
  }
]